[
  {
    "name": "市政大樓員工餐廳會議便當",
    "phones": [ "1999#3419" ],
    "owner": "黃晶晶小姐",
    "address": "臺北市信義區市府路 1 號 B1",
    "preorderTime": "前一日",
    "preorderNumbers": 10,
    "deliverable": false,
    "lat": 25.037813,
    "lng": 121.563943
  },
  {
    "name": "雲記",
    "phones": [ "2531-1963", "2567-8759" ],
    "owner": "簡先生",
    "address": "臺北市中山區長安東路1段11巷2號",
    "preorderTime": "前一日或當日10時前",
    "preorderNumbers": 25,
    "deliverable": true,
    "lat": 25.05038,
    "lng": 121.522715
  },
  {
    "name": "黃平洋鐵道便當天母總店",
    "phones": ["2872-0802"],
    "owner": "",
    "address": "臺北市士林區士東路 91 巷 5 號",
    "preorderTime": "前一日",
    "preorderNumbers": 30,
    "deliverable": true,
    "lat": 25.112788,
    "lng": 121.529081
  },
  {
    "name": "宮保王食品有限公司",
    "phones": ["2651-9947"],
    "owner": "林小姐",
    "address": "臺北市南港區南港路 3 段 149 巷 49 弄 12、14 號",
    "preorderTime": "一周前",
    "preorderNumbers": 30,
    "deliverable": true,
    "lat": 25.051906,
    "lng": 121.585871
  },
  {
    "name": "頂極餐飲有限公司(葷/素)",
    "phones": ["2365-1939", "0929-513-255"],
    "owner": "趙先生",
    "address": "臺北市大安區長興街 50 號",
    "preorderTime": "會議便當需提前一日, 當日 9 時 30 分前",
    "preorderNumbers": 5,
    "deliverable": true,
    "lat": 25.01659,
    "lng": 121.544943
  },
  {
    "name": "呷米共食廚房(素)",
    "phones": ["2331-9662"],
    "owner": "王小姐",
    "address": "臺北市中正區衡陽路 9 號",
    "preorderTime": "前一日",
    "preorderNumbers": 30,
    "deliverable": true,
    "lat": 25.042823,
    "lng": 121.513626
  },
  {
    "name": "千代采食",
    "phones": ["2871-3087", "2871-1087", "2873-9151(o)"],
    "owner": "",
    "address": "臺北市士林區天母北路 26 號",
    "preorderTime": "前一日",
    "preorderNumbers": 5,
    "deliverable": true,
    "lat": 25.120124,
    "lng": 121.526285
  },
  {
    "name": "迦南餐廳陽明店",
    "phones": ["2823-7180"],
    "owner": "",
    "address": "臺北市北投區東華街 1 段 360 號",
    "preorderTime": "前二日",
    "preorderNumbers": 50,
    "deliverable": true,
    "lat": 25.109871,
    "lng": 121.519313
  },
  {
    "name": "迦南餐廳台北店",
    "phones": ["8732-2602", "2733-1668"],
    "owner": "",
    "address": "臺北市大安區長興街 92 號",
    "preorderTime": "前一日",
    "preorderNumbers": 30,
    "deliverable": true,
    "lat": 25.015438,
    "lng": 121.546899
  },
  {
    "name": "福氣食品",
    "phones": ["2656-2252"],
    "owner": "",
    "address": "臺北市內湖區文湖街 60 巷 32 號",
    "preorderTime": "前三日",
    "preorderNumbers": 50,
    "deliverable": true,
    "lat": 25.086283,
    "lng": 121.563967
  },
  {
    "name": "四川快餐店",
    "phones": ["2251-1137"],
    "owner": "",
    "address": "新北市板橋區龍泉街 133 號",
    "preorderTime": "前二日",
    "preorderNumbers": "50（自取不限個數)",
    "deliverable": true,
    "lat": 25.024043,
    "lng": 121.457495
  },
  {
    "name": "溪仔邊烤肉飯",
    "phones": ["2270-6393"],
    "owner": "",
    "address": "新北市土城區金城路 3 段 66 號",
    "preorderTime": "前一日",
    "preorderNumbers": 50,
    "deliverable": true,
    "lat": 24.987128,
    "lng": 121.466452
  },
  {
    "name": "鐵道便當",
    "phones": ["2959-6608"],
    "owner": "",
    "address": "新北市板橋區中山路 1 段 109 號",
    "preorderTime": "前一日",
    "preorderNumbers": 50,
    "deliverable": true,
    "lat": 25.010464,
    "lng": 121.461934
  },
  {
    "name": "甜心生活公坊(身障協會經營)",
    "phones": ["2958-4580"],
    "owner": "周小姐",
    "address": "新北市板橋區富山街 20 號",
    "preorderTime": "前二日",
    "preorderNumbers": 30,
    "deliverable": true,
    "lat": 25.022093,
    "lng": 121.478275
  },
  {
    "name": "億品餐館店",
    "phones": ["8921-0862", "8921-0863"],
    "owner": "",
    "address": "新北市永和區國中街 104 巷 12 弄 4 號 1 樓",
    "preorderTime": "前二日",
    "preorderNumbers": 20,
    "deliverable": true,
    "lat": 25.006812,
    "lng": 121.525581
  },
  {
    "name": "迦南餐廳淡水店",
    "phones": ["2622-9162"],
    "owner": "",
    "address": "新北市淡水區水源街 2 段 92 巷 5 弄 6 號",
    "preorderTime": "前二日",
    "preorderNumbers": 50,
    "deliverable": true,
    "lat": 25.174253,
    "lng": 121.452345
  }
]